City_ID,City,Lat,Lng,Max Temp,Humidity,Cloudiness,Wind Speed,Country,Date
0,Vila Velha,-20.3297,-40.2925,71.6,78,75,8.05,BR,2021-04-30 01:54:17
1,Ponta Do Sol,32.6667,-17.1,55.99,80,31,3.0,PT,2021-04-30 01:54:17
2,Apomu,7.3333,4.1833,72.36,96,100,2.3,NG,2021-04-30 01:54:17
3,Hovd,48.0056,91.6419,64.0,27,86,6.53,MN,2021-04-30 01:52:25
4,Rikitea,-23.1203,-134.9692,77.05,63,77,12.84,PF,2021-04-30 01:54:18
5,Kapaa,22.0752,-159.319,78.8,57,20,9.22,US,2021-04-30 01:53:58
6,Assiniboia,49.6334,-105.9845,55.4,30,97,14.97,CA,2021-04-30 01:51:18
7,Salalah,17.0151,54.0924,82.4,83,75,3.44,OM,2021-04-30 01:52:38
8,Neryungri,56.6709,124.6491,33.01,99,100,4.47,RU,2021-04-30 01:54:18
9,Hamilton,39.1834,-84.5333,57.99,82,55,7.56,US,2021-04-30 01:54:18
10,Albany,42.6001,-73.9662,55.99,90,100,7.05,US,2021-04-30 01:52:36
11,Barrow,71.2906,-156.7887,19.4,86,90,5.75,US,2021-04-30 01:50:38
12,Castro,-24.7911,-50.0119,49.66,97,4,4.56,BR,2021-04-30 01:53:57
13,Pisco,-13.7,-76.2167,66.99,88,0,8.05,PE,2021-04-30 01:54:19
14,Hermanus,-34.4187,19.2345,48.99,93,58,3.44,ZA,2021-04-30 01:49:55
15,Yellowknife,62.456,-114.3525,30.2,51,75,9.22,CA,2021-04-30 01:54:19
16,Half Moon Bay,37.4636,-122.4286,64.0,82,40,12.66,US,2021-04-30 01:50:17
17,Bredasdorp,-34.5322,20.0403,48.2,93,5,5.75,ZA,2021-04-30 01:54:19
18,Hasaki,35.7333,140.8333,75.99,43,20,6.91,JP,2021-04-30 01:54:20
19,Busselton,-33.65,115.3333,57.0,86,9,1.01,AU,2021-04-30 01:53:53
20,Elizabeth City,36.2946,-76.2511,75.99,69,1,16.11,US,2021-04-30 01:54:20
21,Avarua,-21.2078,-159.775,84.2,79,40,9.22,CK,2021-04-30 01:54:20
22,New Norfolk,-42.7826,147.0587,66.0,70,8,4.0,AU,2021-04-30 01:54:21
23,Paita,-5.0892,-81.1144,69.67,79,5,13.85,PE,2021-04-30 01:54:21
24,Tuktoyaktuk,69.4541,-133.0374,28.4,74,1,13.8,CA,2021-04-30 01:49:27
25,San Patricio,28.017,-97.5169,78.01,100,75,6.91,US,2021-04-30 01:52:09
26,Mahajanga,-15.7167,46.3167,75.2,83,20,4.61,MG,2021-04-30 01:54:21
27,Jeremoabo,-10.075,-38.4808,68.79,96,68,4.99,BR,2021-04-30 01:54:22
28,Longyearbyen,78.2186,15.6401,19.4,63,40,12.66,SJ,2021-04-30 01:49:45
29,Mezen,65.8522,44.24,27.64,90,100,5.7,RU,2021-04-30 01:54:22
30,Constitucion,-35.3333,-72.4167,54.79,90,52,2.68,CL,2021-04-30 01:54:22
31,Jieshi,22.8134,115.8257,74.35,73,86,2.24,CN,2021-04-30 01:54:22
32,Mataura,-46.1927,168.8643,55.0,69,34,15.01,NZ,2021-04-30 01:54:23
33,Peachland,49.7665,-119.7357,64.4,52,100,1.14,CA,2021-04-30 01:54:23
34,Ambilobe,-13.2,49.05,72.03,92,10,3.06,MG,2021-04-30 01:54:23
35,Lesosibirsk,58.2358,92.4828,40.08,87,100,13.2,RU,2021-04-30 01:54:24
36,Gazli,40.1333,63.45,67.19,68,100,15.73,UZ,2021-04-30 01:54:24
37,Alta Floresta,-9.8756,-56.0861,70.2,96,73,1.99,BR,2021-04-30 01:53:52
38,Nome,64.5011,-165.4064,28.4,64,75,16.11,US,2021-04-30 01:54:24
39,Bengkulu,-3.8004,102.2655,78.94,81,96,2.28,ID,2021-04-30 01:53:58
40,Henties Bay,-22.116,14.2845,55.0,86,0,1.99,NA,2021-04-30 01:50:07
41,Jatibonico,21.9419,-79.17,77.09,70,44,8.21,CU,2021-04-30 01:54:25
42,Port Elizabeth,-33.918,25.5701,55.99,95,97,1.01,ZA,2021-04-30 01:54:25
43,Norman Wells,65.282,-126.8329,46.4,27,20,5.75,CA,2021-04-30 01:54:25
44,Bonavista,48.6499,-53.1147,41.0,87,100,9.22,CA,2021-04-30 01:54:25
45,Qaanaaq,77.484,-69.3632,25.36,62,100,10.04,GL,2021-04-30 01:54:26
46,Saskylakh,71.9167,114.0833,33.49,94,100,8.12,RU,2021-04-30 01:54:26
47,Port Alfred,-33.5906,26.891,62.58,70,100,11.92,ZA,2021-04-30 01:53:56
48,Banda Aceh,5.5577,95.3222,82.71,72,100,0.58,ID,2021-04-30 01:54:26
49,Rosetta,31.4044,30.4164,66.2,77,0,3.44,EG,2021-04-30 01:54:27
50,Rawson,-43.3002,-65.1023,64.04,54,100,3.62,AR,2021-04-30 01:54:27
51,Tigil,57.8,158.6667,43.81,73,22,4.74,RU,2021-04-30 01:54:27
52,Upernavik,72.7868,-56.1549,23.22,63,100,4.25,GL,2021-04-30 01:54:03
53,Hithadhoo,-0.6,73.0833,83.53,72,81,6.08,MV,2021-04-30 01:54:28
54,Requena,39.4883,-1.1004,64.0,84,57,4.94,ES,2021-04-30 01:54:28
55,Broome,42.2506,-75.833,57.0,100,90,5.75,US,2021-04-30 01:54:28
56,Ushuaia,-54.8,-68.3,39.2,70,75,3.6,AR,2021-04-30 01:50:05
57,Vaini,-21.2,-175.2,75.2,100,75,11.5,TO,2021-04-30 01:54:29
58,Butaritari,3.0707,172.7902,83.82,71,100,12.86,KI,2021-04-30 01:49:45
59,East London,-33.0153,27.9116,63.93,77,100,13.02,ZA,2021-04-30 01:54:29
60,Hilo,19.7297,-155.09,82.4,57,1,8.05,US,2021-04-30 01:50:21
61,Maldonado,-34.6667,-54.9167,60.01,94,0,4.61,UY,2021-04-30 01:54:29
62,Itarema,-2.9248,-39.9167,77.14,82,100,8.03,BR,2021-04-30 01:54:30
63,Rocha,-34.4833,-54.3333,54.59,84,0,4.59,UY,2021-04-30 01:54:30
64,Price,39.5994,-110.8107,73.4,17,1,12.66,US,2021-04-30 01:54:30
65,Plouzane,48.3833,-4.6167,44.6,87,0,6.91,FR,2021-04-30 01:54:31
66,Georgetown,5.4112,100.3354,86.0,83,20,4.61,MY,2021-04-30 01:50:01
67,Makakilo City,21.3469,-158.0858,84.2,54,90,13.8,US,2021-04-30 01:54:31
68,Kodiak,57.79,-152.4072,42.8,81,90,3.44,US,2021-04-30 01:54:31
69,Isangel,-19.55,169.2667,78.8,83,75,8.05,VU,2021-04-30 01:54:32
70,Punta Arenas,-53.15,-70.9167,42.8,93,90,12.66,CL,2021-04-30 01:54:10
71,Mwinilunga,-11.7358,24.4293,61.54,93,94,3.24,ZM,2021-04-30 01:54:32
72,Port-Gentil,-0.7193,8.7815,77.77,87,100,9.33,GA,2021-04-30 01:54:32
73,Pucallpa,-8.3791,-74.5539,75.2,69,20,4.61,PE,2021-04-30 01:54:32
74,Hobart,-42.8794,147.3294,66.0,67,20,10.36,AU,2021-04-30 01:53:04
75,Sept-Iles,50.2001,-66.3821,44.01,70,75,2.3,CA,2021-04-30 01:54:33
76,Nemuro,43.3236,145.575,39.2,100,75,17.27,JP,2021-04-30 01:54:33
77,Cape Town,-33.9258,18.4232,59.0,93,0,5.75,ZA,2021-04-30 01:50:17
78,Portland,45.5234,-122.6762,80.6,28,75,8.05,US,2021-04-30 01:51:54
79,San Cristobal,7.7669,-72.225,75.2,100,75,3.44,VE,2021-04-30 01:50:45
80,Saint Anthony,45.0205,-93.218,64.4,31,75,6.91,US,2021-04-30 01:53:56
81,Grindavik,63.8424,-22.4338,41.0,81,90,5.75,IS,2021-04-30 01:54:34
82,Ilhabela,-23.7781,-45.3581,68.43,80,48,2.39,BR,2021-04-30 01:54:34
83,Bluff,-46.6,168.3333,55.0,69,29,15.01,NZ,2021-04-30 01:54:34
84,Triel-Sur-Seine,48.9782,2.0074,46.99,70,0,6.91,FR,2021-04-30 01:54:34
85,Ancud,-41.8697,-73.8203,57.0,94,20,18.41,CL,2021-04-30 01:54:35
86,Eirunepe,-6.6603,-69.8736,71.26,97,81,2.01,BR,2021-04-30 01:54:35
87,Saint-Raymond,45.467,-73.6095,59.0,72,100,3.44,CA,2021-04-30 01:52:48
88,Flinders,-34.5833,150.8552,73.0,59,1,3.0,AU,2021-04-30 01:51:35
89,Alihe,50.5667,123.7167,38.66,94,100,6.55,CN,2021-04-30 01:54:35
90,Vestmannaeyjar,63.4427,-20.2734,43.14,77,93,6.08,IS,2021-04-30 01:54:36
91,Oktyabrskoye,43.0645,44.7417,44.6,100,20,4.47,RU,2021-04-30 01:54:36
92,Carnarvon,-24.8667,113.6333,75.2,69,40,16.11,AU,2021-04-30 01:54:36
93,Manoel Urbano,-8.8389,-69.2597,73.27,82,91,2.26,BR,2021-04-30 01:54:37
94,Lebu,-37.6167,-73.65,55.06,95,100,7.99,CL,2021-04-30 01:54:37
95,Jamestown,42.097,-79.2353,48.0,93,90,5.75,US,2021-04-30 01:54:37
96,Bethel,41.3712,-73.414,68.0,77,75,5.75,US,2021-04-30 01:54:37
97,Kavieng,-2.5744,150.7967,84.7,69,49,8.93,PG,2021-04-30 01:54:38
98,Bezhta,42.1338,46.1283,45.01,95,99,3.18,RU,2021-04-30 01:54:38
99,Komsomolskiy,40.4272,71.7189,66.2,30,0,4.61,UZ,2021-04-30 01:54:38
100,Sistranda,63.7256,8.834,33.8,93,75,5.75,NO,2021-04-30 01:54:39
101,Bambous Virieux,-20.3428,57.7575,77.0,83,75,8.05,MU,2021-04-30 01:54:39
102,Waingapu,-9.6567,120.2641,84.27,70,60,7.76,ID,2021-04-30 01:54:39
103,Severo-Kurilsk,50.6789,156.125,39.56,79,19,6.42,RU,2021-04-30 01:54:39
104,Kaitangata,-46.2817,169.8464,55.0,62,62,13.0,NZ,2021-04-30 01:53:52
105,Atuona,-9.8,-139.0333,79.34,69,13,4.43,PF,2021-04-30 01:54:40
106,San Lawrenz,36.0553,14.204,62.01,100,40,4.61,MT,2021-04-30 01:54:40
107,Ilulissat,69.2167,-51.1,33.8,75,100,2.3,GL,2021-04-30 01:54:40
108,Ahipara,-35.1667,173.1667,65.37,63,10,7.18,NZ,2021-04-30 01:54:41
109,Meadow Lake,34.8014,-106.5436,71.6,15,20,18.41,US,2021-04-30 01:54:41
110,Carbonear,47.7332,-53.2148,37.0,7,88,6.58,CA,2021-04-30 01:54:41
111,Ketchikan,55.3422,-131.6461,48.2,93,90,13.8,US,2021-04-30 01:54:42
112,Hastings,50.8552,0.5729,42.01,73,89,1.99,GB,2021-04-30 01:54:42
113,Rzeszow,50.0413,21.999,52.0,87,0,3.44,PL,2021-04-30 01:51:12
114,Kadiri,14.1167,78.1667,83.43,47,1,2.46,IN,2021-04-30 01:54:42
115,Chernyshevskiy,63.0128,112.4714,33.57,85,100,7.54,RU,2021-04-30 01:54:42
116,Pevek,69.7008,170.3133,21.61,85,100,8.41,RU,2021-04-30 01:54:43
117,Thompson,55.7435,-97.8558,32.0,43,20,13.8,CA,2021-04-30 01:54:43
118,Tuatapere,-46.1333,167.6833,55.0,69,57,15.01,NZ,2021-04-30 01:54:43
119,Ivanovo,56.9942,40.9858,35.65,86,98,5.86,RU,2021-04-30 01:54:44
120,Lorengau,-2.0226,147.2712,84.49,72,99,3.36,PG,2021-04-30 01:54:29
121,Leningradskiy,69.3833,178.4167,25.61,82,97,17.54,RU,2021-04-30 01:51:35
122,Lavrentiya,65.5833,-171.0,27.93,70,35,4.85,RU,2021-04-30 01:54:44
123,Gairo,39.8497,9.5047,59.0,88,0,3.44,IT,2021-04-30 01:54:44
124,Cherskiy,68.75,161.3,20.73,84,85,11.77,RU,2021-04-30 01:54:45
125,Port Blair,11.6667,92.75,83.62,70,100,5.68,IN,2021-04-30 01:54:45
126,Linguere,15.3953,-15.1193,76.01,34,11,16.02,SN,2021-04-30 01:54:45
127,Saint-Pierre,-21.3393,55.4781,73.4,83,90,17.27,RE,2021-04-30 01:50:00
128,Narsaq,60.9167,-46.05,35.6,80,20,2.3,GL,2021-04-30 01:54:46
129,Brae,60.3964,-1.353,37.4,87,20,9.22,GB,2021-04-30 01:54:46
130,Kampene,-3.6,26.6667,68.45,98,100,1.83,CD,2021-04-30 01:54:46
131,Nisia Floresta,-6.0911,-35.2086,77.0,94,75,5.75,BR,2021-04-30 01:54:46
132,Seoul,37.5683,126.9778,55.4,67,75,2.3,KR,2021-04-30 01:53:42
133,Srednekolymsk,67.45,153.6833,30.79,95,100,5.7,RU,2021-04-30 01:54:47
134,Lompoc,34.6391,-120.4579,64.99,77,13,12.66,US,2021-04-30 01:52:24
135,Songjianghe,42.1859,127.479,54.55,27,12,5.35,CN,2021-04-30 01:54:47
136,Ostrovnoy,68.0531,39.5131,25.38,87,100,18.99,RU,2021-04-30 01:54:47
137,Dikson,73.5069,80.5464,7.14,94,73,8.16,RU,2021-04-30 01:54:48
138,Porto Santo,33.072,-16.3415,60.8,63,40,9.22,PT,2021-04-30 01:54:48
139,Sebina,-20.8667,27.25,64.4,71,22,6.8,BW,2021-04-30 01:54:48
140,Cabo San Lucas,22.8909,-109.9124,75.2,38,1,11.5,MX,2021-04-30 01:54:49
141,Airai,-8.9266,125.4092,73.92,56,11,3.51,TL,2021-04-30 01:54:49
142,Hwange,-18.3693,26.5019,66.31,70,4,1.63,ZW,2021-04-30 01:54:49
143,Esperance,-33.8667,121.9,59.0,82,90,17.27,AU,2021-04-30 01:50:15
144,Kaseda,31.4167,130.3167,71.6,60,75,17.27,JP,2021-04-30 01:54:49
145,Pemba,-12.974,40.5178,75.2,94,20,6.91,MZ,2021-04-30 01:54:50
146,Dickinson,29.4608,-95.0513,77.0,100,90,9.22,US,2021-04-30 01:54:50
147,Umm Lajj,25.0213,37.2685,84.52,40,6,8.77,SA,2021-04-30 01:50:00
148,Tongren,27.7172,109.1853,77.41,56,3,4.05,CN,2021-04-30 01:54:50
149,Dergachi,51.2328,48.7659,44.26,67,52,3.42,RU,2021-04-30 01:54:51
150,Sao Filipe,14.8961,-24.4956,72.99,75,96,6.29,CV,2021-04-30 01:54:51
151,Mbigou,-1.9005,11.906,67.95,98,100,1.43,GA,2021-04-30 01:54:51
152,Hirara,24.8,125.2833,77.0,69,20,5.75,JP,2021-04-30 01:54:52
153,Chokurdakh,70.6333,147.9167,18.14,85,12,4.88,RU,2021-04-30 01:54:48
154,Urucui,-7.2294,-44.5561,77.83,71,94,3.2,BR,2021-04-30 01:54:52
155,Aykhal,66.0,111.5,28.92,91,69,7.02,RU,2021-04-30 01:54:52
156,Olga,43.7444,135.2892,51.13,49,100,11.92,RU,2021-04-30 01:54:52
157,Matam,15.6175,-13.3303,88.45,19,3,19.15,SN,2021-04-30 01:54:53
158,Salym,60.0625,71.4789,40.59,82,80,8.7,RU,2021-04-30 01:54:53
159,Hami,42.8,93.45,75.09,13,3,7.36,CN,2021-04-30 01:54:53
160,Montale,43.9356,11.0171,60.01,95,95,1.01,IT,2021-04-30 01:54:54
161,Sur,22.5667,59.5289,85.42,49,100,2.66,OM,2021-04-30 01:54:54
162,Erzurum,40.0,41.5,37.4,93,40,2.3,TR,2021-04-30 01:54:54
163,Naze,28.3667,129.4833,71.6,68,40,3.44,JP,2021-04-30 01:54:55
164,Riyadh,24.6877,46.7219,71.6,28,0,3.44,SA,2021-04-30 01:53:56
165,Nabire,-3.3667,135.4833,85.84,65,100,1.77,ID,2021-04-30 01:54:55
166,Hofn,64.2539,-15.2082,39.31,64,16,7.38,IS,2021-04-30 01:53:54
167,Rio Grande,-32.035,-52.0986,60.96,79,1,5.93,BR,2021-04-30 01:54:55
168,Puerto Ayora,-0.7393,-90.3518,75.04,87,16,7.74,EC,2021-04-30 01:54:56
169,Kirakira,-10.4544,161.9205,84.2,70,22,9.24,SB,2021-04-30 01:54:56
170,Cap Malheureux,-19.9842,57.6142,73.99,90,19,5.01,MU,2021-04-30 01:54:56
171,Misratah,32.3754,15.0925,76.77,45,3,7.56,LY,2021-04-30 01:54:56
172,Alur,12.9833,75.9833,74.75,60,21,2.55,IN,2021-04-30 01:54:57
173,Nikolskoye,59.7035,30.7861,32.0,74,0,4.47,RU,2021-04-30 01:54:57
174,Rio Gallegos,-51.6226,-69.2181,44.6,93,40,8.05,AR,2021-04-30 01:54:57
175,Takoradi,4.8845,-1.7554,79.97,81,99,3.74,GH,2021-04-30 01:54:58
176,Tiznit,29.5833,-9.5,55.6,83,0,2.48,MA,2021-04-30 01:54:28
177,Srem,52.0887,17.0151,46.99,91,100,4.0,PL,2021-04-30 01:54:58
178,Bairiki,1.3292,172.9752,87.8,70,75,10.36,KI,2021-04-30 01:54:58
179,Arrecife,28.963,-13.5477,66.2,72,40,4.61,ES,2021-04-30 01:54:59
180,Sitka,57.0531,-135.33,44.6,93,75,13.8,US,2021-04-30 01:54:59
181,Villa Bruzual,9.3328,-69.1208,71.1,95,100,3.29,VE,2021-04-30 01:54:59
182,Ribeira Grande,38.5167,-28.7,57.67,64,100,7.67,PT,2021-04-30 01:55:00
183,Barentu,15.1139,37.5928,78.44,51,89,3.02,ER,2021-04-30 01:55:00
184,Paveh,35.0434,46.3565,55.49,50,0,4.18,IR,2021-04-30 01:55:00
185,Tasiilaq,65.6145,-37.6368,32.0,86,100,16.11,GL,2021-04-30 01:54:31
186,Samarai,-10.6167,150.6667,81.18,76,53,10.02,PG,2021-04-30 01:55:00
187,Karratha,-20.7377,116.8463,90.77,20,0,8.79,AU,2021-04-30 01:50:09
188,Saldanha,-33.0117,17.9442,60.1,73,0,18.1,ZA,2021-04-30 01:55:01
189,Yafran,32.0633,12.5286,76.14,23,74,12.71,LY,2021-04-30 01:55:01
190,Mar Del Plata,-38.0023,-57.5575,61.0,82,0,6.91,AR,2021-04-30 01:55:01
191,La Ronge,55.1001,-105.2842,41.0,26,12,6.91,CA,2021-04-30 01:55:02
192,Umm Kaddadah,13.6017,26.6876,75.45,72,100,7.47,SD,2021-04-30 01:55:02
193,Khatanga,71.9667,102.5,32.4,97,100,7.09,RU,2021-04-30 01:55:02
194,Alice Springs,-23.7,133.8833,73.99,23,0,12.66,AU,2021-04-30 01:55:03
195,Shenjiamen,29.9576,122.298,65.53,74,0,8.08,CN,2021-04-30 01:51:02
196,Lethem,3.3803,-59.7968,76.86,82,38,8.05,GY,2021-04-30 01:55:03
197,Namatanai,-3.6667,152.4333,86.11,65,78,1.77,PG,2021-04-30 01:55:03
198,Trincomalee,8.5711,81.2335,80.78,80,70,4.59,LK,2021-04-30 01:50:13
199,Havre-Saint-Pierre,50.2334,-63.5986,39.2,93,90,4.61,CA,2021-04-30 01:55:04
200,Vilhena,-12.7406,-60.1458,65.16,88,100,3.27,BR,2021-04-30 01:55:04
201,Porangatu,-13.4408,-49.1486,72.88,81,100,2.59,BR,2021-04-30 01:55:04
202,Anloga,5.7947,0.8973,80.6,89,20,4.61,GH,2021-04-30 01:55:05
203,Karaton,-6.3424,106.1045,87.01,65,0,5.75,ID,2021-04-30 01:55:05
204,Teya,60.3778,92.6267,36.86,93,100,10.02,RU,2021-04-30 01:55:05
205,Southampton,50.904,-1.4043,45.0,1,68,6.33,GB,2021-04-30 01:50:06
206,Ishigaki,24.3448,124.1572,77.0,65,20,5.75,JP,2021-04-30 01:55:06
207,Pyshma,56.9523,63.2513,39.87,79,80,9.28,RU,2021-04-30 01:55:06
208,Los Llanos De Aridane,28.6585,-17.9182,64.4,72,40,4.61,ES,2021-04-30 01:55:06
209,Saint-Augustin,51.226,-58.6502,41.05,85,100,3.58,CA,2021-04-30 01:55:07
210,Santa Cruz,-17.8,-63.1667,66.2,68,1,4.61,BO,2021-04-30 01:50:26
211,Road Town,18.4167,-64.6167,78.01,88,40,4.61,VG,2021-04-30 01:54:52
212,Torbay,47.6666,-52.7314,37.99,81,1,8.05,CA,2021-04-30 01:55:07
213,Barnbach,47.0333,15.85,54.0,82,100,2.59,AT,2021-04-30 01:55:07
214,Aktau,43.65,51.2,55.4,54,0,8.95,KZ,2021-04-30 01:55:07
215,Huarmey,-10.0681,-78.1522,68.14,83,0,8.68,PE,2021-04-30 01:55:08
216,North Bend,43.4065,-124.2243,57.0,76,1,8.05,US,2021-04-30 01:55:08
217,Springfield,37.2153,-93.2982,62.6,55,1,6.91,US,2021-04-30 01:55:08
218,Washim,20.1,77.15,87.19,27,44,12.12,IN,2021-04-30 01:55:09
219,Pitimbu,-7.4706,-34.8086,75.2,100,40,4.61,BR,2021-04-30 01:54:06
220,Kasongo-Lunda,-6.4667,16.8167,70.14,97,100,0.78,CD,2021-04-30 01:55:09
221,Imbituba,-28.24,-48.6703,66.2,82,0,4.61,BR,2021-04-30 01:55:09
222,Chitral,35.8462,71.7858,62.51,43,2,4.52,PK,2021-04-30 01:55:10
223,Laguna,38.421,-121.4238,87.8,16,1,6.91,US,2021-04-30 01:55:10
224,Sioux Lookout,50.1001,-91.917,37.4,65,90,12.66,CA,2021-04-30 01:55:10
225,Karpogory,64.0019,44.4451,30.11,81,93,5.32,RU,2021-04-30 01:55:11
226,San Matias,-16.3667,-58.4,69.93,55,100,4.23,BO,2021-04-30 01:55:11
227,Dalby,-27.1833,151.2667,75.0,50,43,3.0,AU,2021-04-30 01:55:11
228,Norden,53.6,7.2,45.0,90,100,1.01,DE,2021-04-30 01:55:12
229,Ust-Koksa,50.2696,85.6108,57.63,55,100,3.56,RU,2021-04-30 01:55:12
230,Solnechnyy,50.7214,136.6319,38.12,69,89,9.53,RU,2021-04-30 01:55:12
231,Tual,-5.6667,132.75,82.87,69,100,4.83,ID,2021-04-30 01:55:12
232,Vao,-22.6667,167.4833,74.95,57,94,21.25,NC,2021-04-30 01:55:13
233,Bowen,-20.0167,148.2333,78.8,65,40,17.27,AU,2021-04-30 01:50:55
234,Mahebourg,-20.4081,57.7,77.0,83,75,8.05,MU,2021-04-30 01:55:13
235,Lasa,46.6166,10.7002,46.0,87,75,5.75,IT,2021-04-30 01:50:19
236,Tessalit,20.1986,1.0114,89.02,9,23,8.3,ML,2021-04-30 01:55:13
237,Buenaventura,3.8801,-77.0312,64.0,77,90,2.19,CO,2021-04-30 01:55:14
238,Hobyo,5.3505,48.5268,83.82,69,78,5.95,SO,2021-04-30 01:54:47
239,Gouyave,12.1646,-61.7296,75.2,94,75,8.7,GD,2021-04-30 01:55:14
240,Gorontalo,0.5412,123.0595,89.13,57,34,3.09,ID,2021-04-30 01:55:14
241,Adrar,20.5022,-10.0711,75.85,40,4,9.22,MR,2021-04-30 01:53:59
242,Fairbanks,64.8378,-147.7164,48.2,53,90,11.5,US,2021-04-30 01:55:15
243,Sola,-13.8833,167.55,81.55,65,80,20.89,VU,2021-04-30 01:54:43
244,Bilma,18.6853,12.9164,84.07,7,0,8.97,NE,2021-04-30 01:55:15
245,Bandrele,-12.9067,45.1914,80.6,83,0,3.44,YT,2021-04-30 01:55:15
246,Maceio,-9.6658,-35.7353,75.2,94,40,3.44,BR,2021-04-30 01:55:03
247,Sayyan,15.1718,44.3244,56.66,73,56,3.02,YE,2021-04-30 01:55:16
248,Oum Hadjer,13.2954,19.6966,81.93,8,18,10.27,TD,2021-04-30 01:55:16
249,Shebunino,46.4339,141.8603,45.95,69,100,11.1,RU,2021-04-30 01:55:16
250,Kruisfontein,-34.0033,24.7314,55.99,95,100,1.01,ZA,2021-04-30 01:55:16
251,South Lake Tahoe,38.9332,-119.9844,78.8,30,1,9.22,US,2021-04-30 01:55:17
252,Vitorino Freire,-4.0667,-45.1667,73.56,96,100,2.57,BR,2021-04-30 01:55:17
253,Hambantota,6.1241,81.1185,80.78,80,88,7.49,LK,2021-04-30 01:55:17
254,Letterkenny,54.95,-7.7333,35.55,84,52,1.05,IE,2021-04-30 01:55:18
255,Roebourne,-20.7833,117.1333,90.37,21,0,8.46,AU,2021-04-30 01:55:18
256,Bam,29.106,58.357,76.55,27,100,6.02,IR,2021-04-30 01:52:25
257,Caranavi,-15.8167,-67.55,58.59,87,81,2.59,BO,2021-04-30 01:55:18
258,Kijang,35.2442,129.2139,68.0,34,40,14.97,KR,2021-04-30 01:55:19
259,Necochea,-38.5473,-58.7368,57.99,86,60,11.01,AR,2021-04-30 01:55:19
260,Wanning,18.8003,110.3967,81.0,72,75,2.64,CN,2021-04-30 01:55:19
261,Iqaluit,63.7506,-68.5145,32.0,100,90,4.61,CA,2021-04-30 01:55:19
262,Esmeraldas,-19.7625,-44.3139,68.0,73,0,10.36,BR,2021-04-30 01:55:20
263,Kununurra,-15.7667,128.7333,89.6,29,0,10.36,AU,2021-04-30 01:54:15
264,Vanimo,-2.6741,141.3028,84.36,78,95,5.77,PG,2021-04-30 01:55:20
265,Cairns,-16.9167,145.7667,82.99,57,40,18.41,AU,2021-04-30 01:55:20
266,Kibre Mengist,5.8833,38.9833,58.87,96,100,2.37,ET,2021-04-30 01:55:21
267,Saint-Philippe,-21.3585,55.7679,73.4,83,90,17.27,RE,2021-04-30 01:54:02
268,Cidreira,-30.1811,-50.2056,64.76,75,0,5.97,BR,2021-04-30 01:50:29
269,Tiksi,71.6872,128.8694,32.02,82,89,5.14,RU,2021-04-30 01:54:57
270,Coquimbo,-29.9533,-71.3436,55.4,88,0,4.61,CL,2021-04-30 01:55:21
271,Ende,-8.8432,121.6623,84.94,66,18,3.22,ID,2021-04-30 01:55:21
272,Caravelas,-17.7125,-39.2481,76.66,70,100,11.07,BR,2021-04-30 01:55:14
273,Belyy Yar,53.6039,91.3903,42.8,100,75,2.24,RU,2021-04-30 01:55:22
274,Treuchtlingen,48.95,10.9167,42.8,100,40,1.14,DE,2021-04-30 01:55:22
275,Port Lincoln,-34.7333,135.8667,72.77,37,39,11.95,AU,2021-04-30 01:55:22
276,Geraldton,-28.7667,114.6,68.0,60,75,17.27,AU,2021-04-30 01:55:03
277,Ust-Nera,64.5667,143.2,36.54,97,99,1.77,RU,2021-04-30 01:50:45
278,Forest Acres,34.0193,-80.9898,78.8,44,1,6.91,US,2021-04-30 01:55:22
279,Kautokeino,69.0125,23.0412,8.4,89,46,7.43,NO,2021-04-30 01:55:23
280,Te Anau,-45.4167,167.7167,58.84,64,4,2.77,NZ,2021-04-30 01:55:23
281,Kungurtug,50.5994,97.5228,42.46,76,100,2.46,RU,2021-04-30 01:55:23
282,Kletskaya,49.3145,43.0584,43.9,56,7,8.23,RU,2021-04-30 01:55:24
283,La Seyne-Sur-Mer,43.0982,5.8847,57.0,94,86,1.01,FR,2021-04-30 01:55:24
284,Sembe,1.6481,14.5806,68.68,92,65,1.97,CG,2021-04-30 01:55:24
285,Gerardmer,48.0735,6.8779,48.2,76,90,1.14,FR,2021-04-30 01:55:25
286,Burgeo,47.6167,-57.6152,38.08,91,34,6.29,CA,2021-04-30 01:55:25
287,Tilichiki,60.4667,166.1,32.83,99,100,0.96,RU,2021-04-30 01:55:25
288,Yenagoa,4.9247,6.2642,77.0,93,100,3.22,NG,2021-04-30 01:55:26
289,Olafsvik,64.8945,-23.7142,40.24,77,93,3.44,IS,2021-04-30 01:55:26
290,Guerrero Negro,27.9769,-114.0611,64.96,68,0,16.82,MX,2021-04-30 01:55:26
291,Fortuna,40.5982,-124.1573,57.99,62,20,13.8,US,2021-04-30 01:55:27
292,Sambava,-14.2667,50.1667,75.11,86,8,9.24,MG,2021-04-30 01:55:27
293,Bahia Blanca,-38.7196,-62.2724,64.99,61,6,15.14,AR,2021-04-30 01:55:27
294,Tamiahua,21.2667,-97.45,78.26,91,43,7.81,MX,2021-04-30 01:55:27
295,Kamaishi,39.2667,141.8833,55.4,67,75,8.05,JP,2021-04-30 01:55:28
296,Tignere,7.3667,12.65,66.43,69,94,2.98,CM,2021-04-30 01:55:28
297,Grand Gaube,-20.0064,57.6608,73.99,90,24,5.01,MU,2021-04-30 01:55:28
298,Krasnoselkup,65.7,82.4667,32.23,97,100,16.28,RU,2021-04-30 01:53:57
299,Koumac,-20.5667,164.2833,76.26,63,98,9.42,NC,2021-04-30 01:55:29
300,Curillo,1.0333,-75.9191,71.67,98,100,1.7,CO,2021-04-30 01:55:29
301,Xichang,27.8964,102.2634,69.24,39,100,1.99,CN,2021-04-30 01:55:29
302,Burnie,-41.0667,145.9167,59.0,78,40,11.99,AU,2021-04-30 01:55:29
303,Tonstad,58.6626,6.7169,41.0,88,12,6.71,NO,2021-04-30 01:55:30
304,Dingle,10.9995,122.6711,88.11,42,18,5.75,PH,2021-04-30 01:55:30
305,Dombarovskiy,50.7587,59.5386,44.02,66,0,3.76,RU,2021-04-30 01:55:30
306,Havre,49.5833,0.3333,37.4,87,0,3.91,FR,2021-04-30 01:55:31
307,Klaksvik,62.2266,-6.589,35.6,69,90,2.3,FO,2021-04-30 01:54:30
308,Plettenberg Bay,-34.0527,23.3716,56.98,89,100,4.54,ZA,2021-04-30 01:55:31
309,Agdam,39.991,46.9274,56.35,86,100,0.47,AZ,2021-04-30 01:55:31
310,Santa,17.486,120.4348,87.28,53,11,7.81,PH,2021-04-30 01:55:32
311,Owando,-0.4819,15.8999,71.47,96,100,2.48,CG,2021-04-30 01:50:39
312,Maxixe,-23.8597,35.3472,70.36,80,0,4.76,MZ,2021-04-30 01:55:32
313,Nishihara,26.1842,127.7558,73.4,68,1,6.91,JP,2021-04-30 01:55:23
314,Artesia,33.8658,-118.0831,84.2,22,1,14.97,US,2021-04-30 01:55:32
315,Spencer,43.1414,-95.1444,62.6,31,20,5.75,US,2021-04-30 01:55:33
316,Rochelle,46.25,-1.0,50.0,71,0,4.61,FR,2021-04-30 01:55:33
317,Axim,4.8699,-2.2405,80.26,80,100,4.41,GH,2021-04-30 01:55:33
318,Codrington,-38.2667,141.9667,72.16,39,0,10.42,AU,2021-04-30 01:55:33
319,Souillac,-20.5167,57.5167,77.0,83,75,8.05,MU,2021-04-30 01:55:19
320,Shar,49.5886,81.0453,59.77,64,99,11.86,KZ,2021-04-30 01:55:34
321,Ternate,0.8,127.4,84.38,67,94,1.23,ID,2021-04-30 01:55:34
322,Mbandaka,0.0487,18.2603,70.83,95,100,2.68,CD,2021-04-30 01:55:35
323,Juruti,-2.1522,-56.0922,75.43,88,95,1.07,BR,2021-04-30 01:55:35
324,Itacoatiara,-3.1431,-58.4442,73.54,95,71,0.78,BR,2021-04-30 01:55:35
325,Taicheng,38.731,113.228,57.07,28,71,24.27,CN,2021-04-30 01:55:35
326,Kopervik,59.2835,5.3067,41.0,86,1,1.14,NO,2021-04-30 01:55:36
327,Biak,-0.9131,122.8766,83.46,64,50,2.13,ID,2021-04-30 01:55:36
328,Putina,-15.4667,-69.4333,42.1,81,66,5.46,PE,2021-04-30 01:55:36
329,Coihaique,-45.5752,-72.0662,50.23,95,70,5.28,CL,2021-04-30 01:55:36
330,Victoria,22.2855,114.1577,79.0,74,100,1.01,HK,2021-04-30 01:55:07
331,Totma,59.9747,42.7642,29.32,89,62,6.15,RU,2021-04-30 01:55:37
332,San Francisco,37.7749,-122.4194,62.01,59,75,23.02,US,2021-04-30 01:53:10
333,Caiaponia,-16.9567,-51.8103,66.92,41,100,5.23,BR,2021-04-30 01:55:37
334,Kamenka,51.3223,42.7678,37.99,72,100,7.09,RU,2021-04-30 01:55:37
335,Port Hardy,50.6996,-127.4199,53.6,87,90,3.44,CA,2021-04-30 01:51:09
336,Pouso Alegre,-22.23,-45.9364,53.76,95,30,3.62,BR,2021-04-30 01:55:38
337,Udachnyy,66.4167,112.4,28.36,92,82,6.87,RU,2021-04-30 01:51:18
338,Port Keats,-14.25,129.55,89.65,41,5,9.1,AU,2021-04-30 01:55:38
339,Luanda,-8.8368,13.2343,75.2,94,40,3.44,AO,2021-04-30 01:52:17
340,Junin,-34.5838,-60.9433,57.0,37,0,8.03,AR,2021-04-30 01:55:38
341,Bonthe,7.5264,-12.505,80.69,79,45,2.8,SL,2021-04-30 01:55:39
342,Sakaraha,-22.9,44.5333,69.31,69,0,4.12,MG,2021-04-30 01:55:39
343,Lata,40.1629,-8.3327,51.01,86,73,1.16,PT,2021-04-30 01:55:39
344,Yeppoon,-23.1333,150.7333,78.8,57,20,12.66,AU,2021-04-30 01:55:40
345,Padang,-0.9492,100.3543,77.83,87,100,2.8,ID,2021-04-30 01:53:14
346,Ybycui,-26.0167,-57.05,55.22,61,0,4.27,PY,2021-04-30 01:55:40
347,Batticaloa,7.7102,81.6924,83.28,71,98,3.0,LK,2021-04-30 01:55:40
348,Clyde River,70.4692,-68.5914,24.8,100,90,4.61,CA,2021-04-30 01:55:04
349,Keelung,25.1283,121.7419,80.6,54,0,2.3,TW,2021-04-30 01:55:41
350,Surt,31.2089,16.5887,80.73,27,4,9.19,LY,2021-04-30 01:55:41
351,Provideniya,64.3833,-173.3,32.0,69,75,6.71,RU,2021-04-30 01:55:41
352,Phalaborwa,-23.943,31.1411,64.4,82,0,3.44,ZA,2021-04-30 01:55:42
353,Lagoa,39.05,-27.9833,56.59,61,99,4.72,PT,2021-04-30 01:55:42
354,Madang,-5.2246,145.7966,84.34,70,100,7.09,PG,2021-04-30 01:55:42
355,Pacifica,37.6138,-122.4869,57.99,82,40,12.66,US,2021-04-30 01:55:42
356,Mirandopolis,-21.1336,-51.1017,63.63,47,78,10.47,BR,2021-04-30 01:55:43
357,Bow Island,49.8668,-111.3684,69.8,30,100,12.66,CA,2021-04-30 01:55:43
358,Fort Nelson,58.8053,-122.7002,48.2,57,75,2.3,CA,2021-04-30 01:55:43
359,Eganville,45.5334,-77.0994,52.0,84,100,2.21,CA,2021-04-30 01:55:44
360,Kommunisticheskiy,61.6789,64.4819,35.11,85,96,3.69,RU,2021-04-30 01:55:44
361,Ixtapa,20.7,-105.2,78.8,73,1,9.22,MX,2021-04-30 01:55:44
362,Archidona,37.0965,-4.3887,55.99,70,50,1.99,ES,2021-04-30 01:55:45
363,Chimbote,-9.0853,-78.5783,66.36,87,0,6.42,PE,2021-04-30 01:55:45
364,Quatre Cocos,-20.2078,57.7625,77.0,83,75,8.05,MU,2021-04-30 01:55:45
365,Svetlaya,46.5389,138.3297,42.31,77,100,13.24,RU,2021-04-30 01:55:46
366,Hay River,60.8156,-115.7999,44.6,29,98,11.5,CA,2021-04-30 01:55:46
367,Fujin,47.26,132.0322,60.3,27,97,11.27,CN,2021-04-30 01:55:46
368,Buala,-8.145,159.5921,83.91,71,100,4.99,SB,2021-04-30 01:55:46
369,Grandview,38.8858,-94.533,73.4,40,1,4.61,US,2021-04-30 01:55:47
370,Pyinmana,19.7333,96.2167,86.16,58,4,6.78,MM,2021-04-30 01:55:47
371,Goderich,43.7501,-81.7165,41.0,93,100,4.61,CA,2021-04-30 01:55:47
372,Pierre,44.3683,-100.351,69.8,32,20,4.61,US,2021-04-30 01:55:00
373,Bose,45.4612,8.0137,48.99,96,67,3.15,IT,2021-04-30 01:55:48
374,Bollnas,61.3482,16.3946,30.83,72,4,3.74,SE,2021-04-30 01:55:48
375,Mendeleyevo,56.0333,37.2167,37.4,81,0,6.71,RU,2021-04-30 01:55:48
376,Barabai,-2.5833,115.3833,90.23,53,39,1.25,ID,2021-04-30 01:55:49
377,Sydney,-33.8679,151.2073,72.0,73,40,6.91,AU,2021-04-30 01:51:34
378,Timmins,48.4669,-81.3331,53.6,50,90,3.44,CA,2021-04-30 01:54:05
379,Poum,-20.2333,164.0167,77.76,58,76,15.48,NC,2021-04-30 01:54:52
380,Berga,60.392,5.328,41.0,80,0,2.3,NO,2021-04-30 01:55:49
381,Tura,25.5198,90.2201,90.54,28,5,3.27,IN,2021-04-30 01:55:49
382,Whitehorse,60.7161,-135.0538,39.2,93,90,12.66,CA,2021-04-30 01:52:36
383,Singkawang,0.9,109.0,82.24,80,48,1.92,ID,2021-04-30 01:53:03
384,Buenos Aires,-34.6132,-58.3772,68.0,68,0,6.91,AR,2021-04-30 01:53:13
385,Shingu,33.7333,135.9833,64.4,72,0,10.36,JP,2021-04-30 01:55:50
386,Evensk,61.95,159.2333,33.91,92,22,0.2,RU,2021-04-30 01:51:17
387,Vilyuysk,63.7553,121.6247,33.44,82,100,4.54,RU,2021-04-30 01:55:50
388,Olbia,40.9214,9.4856,55.94,92,67,3.38,IT,2021-04-30 01:55:50
389,Berlevag,70.8578,29.0864,29.3,68,100,26.37,NO,2021-04-30 01:55:51
390,Beringovskiy,63.05,179.3167,29.75,75,35,6.22,RU,2021-04-30 01:55:51
391,Mnogovershinnyy,53.9353,139.9242,33.03,66,97,6.11,RU,2021-04-30 01:55:51
392,Merauke,-8.4667,140.3333,82.76,70,100,6.62,ID,2021-04-30 01:55:51
393,Yulara,-25.2406,130.9889,71.6,23,8,14.97,AU,2021-04-30 01:55:52
394,Akdepe,42.0551,59.3788,57.2,82,0,9.22,TM,2021-04-30 01:55:52
395,Ormara,25.2088,64.6357,81.48,75,8,9.86,PK,2021-04-30 01:55:52
396,Kushima,31.4583,131.2333,73.4,60,75,17.27,JP,2021-04-30 01:55:53
397,Dabhol,17.6,73.1667,81.68,68,34,4.65,IN,2021-04-30 01:55:53
398,Saint George,37.1041,-113.5841,84.2,12,1,11.5,US,2021-04-30 01:55:53
399,Ipixuna,-1.7625,-48.8043,75.2,94,75,3.44,BR,2021-04-30 01:55:53
400,Kavaratti,10.5669,72.642,83.91,75,31,7.81,IN,2021-04-30 01:55:54
401,Novoleushkovskaya,45.9956,39.9921,50.68,96,89,8.59,RU,2021-04-30 01:55:54
402,Telfs,47.3,11.0667,48.2,93,75,4.61,AT,2021-04-30 01:55:54
403,Jawa,31.8525,35.9393,66.2,37,0,2.3,JO,2021-04-30 01:55:55
404,Mori,34.8333,137.9333,68.0,49,20,20.71,JP,2021-04-30 01:55:55
405,Ust-Ishim,57.6935,71.1665,43.23,65,8,9.78,RU,2021-04-30 01:55:55
406,Am Timan,11.0297,20.2827,86.68,35,95,4.56,TD,2021-04-30 01:55:56
407,Xining,36.6167,101.7667,56.5,22,6,2.98,CN,2021-04-30 01:55:56
408,Sibu,2.3,111.8167,75.2,94,40,5.75,MY,2021-04-30 01:55:56
409,La Palma,33.8464,-118.0467,84.2,20,75,6.91,US,2021-04-30 01:55:57
410,Melo,-32.3667,-54.1833,53.15,80,0,4.16,UY,2021-04-30 01:55:57
411,Sao Felix Do Xingu,-6.6447,-51.995,71.22,98,78,1.25,BR,2021-04-30 01:53:54
412,Marsa Matruh,31.3525,27.2453,64.4,72,0,5.75,EG,2021-04-30 01:55:57
413,Zhangye,38.9342,100.4517,66.97,16,0,0.72,CN,2021-04-30 01:55:57
414,Zhigansk,66.7697,123.3711,31.87,98,100,7.52,RU,2021-04-30 01:55:58
415,Luderitz,-26.6481,15.1594,55.47,76,0,21.54,NA,2021-04-30 01:55:58
416,Chiang Khong,20.2613,100.4046,71.6,100,75,6.91,TH,2021-04-30 01:55:58
417,Mount Isa,-20.7333,139.5,84.2,34,1,8.05,AU,2021-04-30 01:55:59
418,Roald,62.5833,6.1333,37.4,75,27,10.36,NO,2021-04-30 01:55:59
419,Uusikaupunki,60.8004,21.4084,26.6,86,0,2.3,FI,2021-04-30 01:55:59
420,Berdigestyakh,62.0989,126.6992,35.87,82,94,4.27,RU,2021-04-30 01:55:59
421,Sai Buri,6.7013,101.6168,82.4,83,20,4.61,TH,2021-04-30 01:56:00
422,Sofiyivka,48.0493,33.8746,46.4,87,0,4.47,UA,2021-04-30 01:56:00
423,Honningsvag,70.9821,25.9704,29.71,56,100,23.47,NO,2021-04-30 01:56:00
424,Vostok,46.4856,135.8833,54.63,24,43,6.78,RU,2021-04-30 01:56:01
425,Phan Thiet,10.9333,108.1,84.4,65,35,7.56,VN,2021-04-30 01:56:01
426,Nador,35.174,-2.9287,62.6,63,0,2.3,MA,2021-04-30 01:56:02
427,Tranas,58.0372,14.9782,32.0,69,98,6.91,SE,2021-04-30 01:56:02
428,Deputatskiy,69.3,139.9,22.5,91,99,4.54,RU,2021-04-30 01:54:43
429,Oranjemund,-28.55,16.4333,54.21,89,1,11.1,NA,2021-04-30 01:51:49
430,Oussouye,12.485,-16.5469,73.22,65,63,10.42,SN,2021-04-30 01:56:02
431,Kenai,60.5544,-151.2583,46.4,76,75,18.41,US,2021-04-30 01:56:03
432,Lake Charles,30.2131,-93.2044,78.8,83,75,9.22,US,2021-04-30 01:56:03
433,Ambovombe,-25.1667,46.0833,70.02,82,0,5.21,MG,2021-04-30 01:56:03
434,Lima,-12.0432,-77.0282,68.0,82,20,10.36,PE,2021-04-30 01:54:00
435,Westport,41.1415,-73.3579,61.0,100,100,12.84,US,2021-04-30 01:55:37
436,Kabalo,-6.05,26.9167,69.39,92,97,3.29,CD,2021-04-30 01:54:17
437,Mundgod,14.9667,75.0333,71.6,94,27,2.68,IN,2021-04-30 01:56:04
438,Tagusao,9.1924,117.8141,85.1,68,30,5.86,PH,2021-04-30 01:56:04
439,Talnakh,69.4865,88.3972,29.98,91,82,3.67,RU,2021-04-30 01:55:54
440,Hammerfest,70.6634,23.6821,26.6,74,75,18.41,NO,2021-04-30 01:55:57
441,Yar-Sale,66.8333,70.8333,28.13,96,100,7.4,RU,2021-04-30 01:55:13
442,Presidencia Roque Saenz Pena,-26.7852,-60.4388,53.94,74,0,4.97,AR,2021-04-30 01:56:04
443,Shelburne,44.0787,-80.2041,48.0,100,100,13.94,CA,2021-04-30 01:56:05
444,Chihuahua,28.5,-106.0,68.0,18,75,12.66,MX,2021-04-30 01:56:05
445,Taoudenni,22.6783,-3.9836,86.18,26,78,21.81,ML,2021-04-30 01:56:05
446,San Ramon,37.7799,-121.978,75.2,27,1,11.5,US,2021-04-30 01:54:39
447,Petropavlovsk-Kamchatskiy,53.0452,158.6483,48.2,61,49,8.95,RU,2021-04-30 01:51:07
448,Moose Factory,51.2585,-80.6094,46.4,71,90,4.61,CA,2021-04-30 01:56:06
449,Stawell,-37.05,142.7667,67.71,37,0,9.66,AU,2021-04-30 01:56:06
450,Balikpapan,-1.2675,116.8289,82.42,76,92,1.61,ID,2021-04-30 01:56:06
451,Hargeysa,9.56,44.065,67.3,80,100,8.01,SO,2021-04-30 01:56:06
452,Urumqi,43.801,87.6005,75.2,14,0,13.42,CN,2021-04-30 01:56:07
453,Haines Junction,60.7522,-137.5108,48.2,49,100,4.61,CA,2021-04-30 01:55:23
454,Ugoofaaru,5.6667,73.0,83.43,72,83,6.15,MV,2021-04-30 01:56:07
455,Khandyga,62.6667,135.6,36.91,99,100,3.02,RU,2021-04-30 01:56:07
456,Sol-Iletsk,51.1631,54.9918,44.46,66,8,4.97,RU,2021-04-30 01:56:07
457,Acapulco,16.8634,-99.8901,80.6,83,75,12.66,MX,2021-04-30 01:56:08
458,Zhanakorgan,43.9098,67.2495,68.52,43,99,20.71,KZ,2021-04-30 01:56:08
459,Kiunga,-6.1219,141.2906,84.88,67,100,1.05,PG,2021-04-30 01:55:55
460,Kawalu,-7.3817,108.2082,80.96,70,88,2.53,ID,2021-04-30 01:56:07
461,Renqiu,38.6989,116.0936,60.26,25,100,10.58,CN,2021-04-30 01:56:08
462,Loding,67.3,14.75,36.0,75,75,19.57,NO,2021-04-30 01:56:09
463,Canto Do Buriti,-8.11,-42.9444,76.87,64,96,4.16,BR,2021-04-30 01:56:09
464,Villa Carlos Paz,-31.4241,-64.4978,64.0,71,0,10.36,AR,2021-04-30 01:56:09
465,Meulaboh,4.1363,96.1285,80.73,76,100,3.98,ID,2021-04-30 01:56:10
466,Antofagasta,-23.65,-70.4,60.8,82,0,6.91,CL,2021-04-30 01:56:10
467,Potosi,-19.5836,-65.7531,39.47,78,0,5.84,BO,2021-04-30 01:56:10
468,Siocon,7.7061,122.1353,86.04,68,39,0.02,PH,2021-04-30 01:56:11
469,Katsuura,35.1333,140.3,75.99,68,20,3.44,JP,2021-04-30 01:56:11
470,Yokadouma,3.5167,15.05,67.95,97,65,0.83,CM,2021-04-30 01:56:11
471,Arraial Do Cabo,-22.9661,-42.0278,71.58,72,14,8.16,BR,2021-04-30 01:56:11
472,Tocopilla,-22.092,-70.1979,67.26,70,1,10.78,CL,2021-04-30 01:56:12
473,Bentiu,9.2333,29.8333,79.12,62,100,4.97,SS,2021-04-30 01:56:12
474,Awjilah,29.1081,21.2869,79.56,15,0,11.88,LY,2021-04-30 01:56:12
475,Fukue,32.6881,128.8419,68.0,64,75,14.97,JP,2021-04-30 01:56:13
476,Cordele,31.9635,-83.7824,72.0,82,99,1.01,US,2021-04-30 01:56:13
477,Pala,9.3642,14.9046,81.97,46,80,0.18,TD,2021-04-30 01:56:13
478,Okakarara,-20.5833,17.4333,62.26,47,85,4.97,NA,2021-04-30 01:56:13
479,Chisec,15.8167,-90.2833,82.09,57,14,3.29,GT,2021-04-30 01:56:14
480,Krasnorechenskiy,44.6265,135.3532,54.77,30,77,5.84,RU,2021-04-30 01:56:14
481,Tanabe,33.7333,135.3667,64.4,72,0,10.36,JP,2021-04-30 01:56:14
482,Mishkino,55.3389,63.9175,42.84,68,10,11.86,RU,2021-04-30 01:56:15
483,Pteleos,39.05,22.95,50.0,100,0,0.96,GR,2021-04-30 01:56:15
484,Agidel,55.9077,53.9355,36.19,84,22,5.88,RU,2021-04-30 01:56:15
485,Amudat,1.95,34.95,69.12,67,98,3.31,UG,2021-04-30 01:56:16
486,Kerchevskiy,59.946,56.2884,31.55,80,19,6.38,RU,2021-04-30 01:56:16
487,Bom Jesus,-9.0744,-44.3586,78.76,60,98,1.79,BR,2021-04-30 01:56:16
488,Taua,-5.9667,-40.3,72.93,85,90,4.25,BR,2021-04-30 01:56:16
489,Swan Hill,-35.3378,143.5544,73.72,27,0,8.21,AU,2021-04-30 01:56:17
490,Eureka,40.8021,-124.1637,57.0,74,100,4.0,US,2021-04-30 01:56:17
491,Bereda,43.2686,-7.5406,45.0,100,85,2.64,ES,2021-04-30 01:56:17
492,Ust-Tsilma,65.441,52.1498,32.9,61,100,6.93,RU,2021-04-30 01:56:18
493,Tazovskiy,67.4667,78.7,30.49,93,100,9.53,RU,2021-04-30 01:55:19
494,Richards Bay,-28.783,32.0377,71.56,82,100,13.11,ZA,2021-04-30 01:56:18
495,Manggar,-2.8833,108.2667,83.8,75,93,6.76,ID,2021-04-30 01:56:18
496,Santa Comba,43.0331,-8.8093,46.0,66,26,2.95,ES,2021-04-30 01:56:19
497,Chiredzi,-21.05,31.6667,62.31,82,0,2.55,ZW,2021-04-30 01:56:19
498,Kirovsk,48.6375,38.6428,43.38,76,16,6.51,UA,2021-04-30 01:56:19
499,Pangnirtung,66.1451,-65.7125,32.07,76,100,5.82,CA,2021-04-30 01:56:19
500,Tula,54.2044,37.6111,43.18,77,100,10.09,RU,2021-04-30 01:52:21
501,Morondava,-20.2833,44.2833,77.25,75,71,5.59,MG,2021-04-30 01:56:20
502,Ukiah,39.1502,-123.2078,82.4,21,1,5.75,US,2021-04-30 01:56:20
503,Quesnel,52.9999,-122.5029,59.0,72,20,9.22,CA,2021-04-30 01:56:20
504,Gaillac,43.9016,1.8969,50.0,93,90,2.3,FR,2021-04-30 01:56:21
505,Verkhnyaya Khava,51.8404,39.9413,37.4,70,0,6.71,RU,2021-04-30 01:56:21
506,Sopelana,43.3789,-2.9831,46.99,92,100,1.01,ES,2021-04-30 01:56:21
507,Sukhothai,17.25,99.6667,82.99,94,40,2.3,TH,2021-04-30 01:56:22
508,Cabedelo,-6.9811,-34.8339,75.2,100,40,4.61,BR,2021-04-30 01:56:22
509,Avinurme,58.9822,26.8642,37.99,81,100,3.0,EE,2021-04-30 01:56:22
510,Chicama,-7.8447,-79.1469,69.62,78,0,5.7,PE,2021-04-30 01:56:23
511,Mazamari,-11.3258,-74.5308,66.16,94,35,0.98,PE,2021-04-30 01:56:23
512,Chuy,-33.6971,-53.4616,55.96,81,0,4.0,UY,2021-04-30 01:54:45
513,Aklavik,68.2191,-135.0107,42.8,39,39,4.61,CA,2021-04-30 01:54:37
514,Akhmim,26.5622,31.745,71.6,16,0,6.91,EG,2021-04-30 01:56:23
515,Luwuk,-0.9516,122.7875,85.93,63,36,3.27,ID,2021-04-30 01:54:01
516,Vardo,70.3705,31.1107,30.58,94,100,21.79,NO,2021-04-30 01:56:24
517,Maniitsoq,65.4167,-52.9,35.33,78,46,5.3,GL,2021-04-30 01:56:14
518,Durban,-29.8579,31.0292,64.4,82,75,14.97,ZA,2021-04-30 01:56:24
519,Constantine,36.365,6.6147,55.4,71,0,5.75,DZ,2021-04-30 01:56:24
520,Liepaja,56.5419,21.0367,42.8,87,90,11.5,LV,2021-04-30 01:56:24
521,Havelock,34.8791,-76.9013,72.0,73,1,16.11,US,2021-04-30 01:56:25
522,Seymchan,62.8833,152.4333,33.55,92,98,1.16,RU,2021-04-30 01:56:25
523,Russkaya Polyana,49.417,31.9201,46.08,86,71,7.14,UA,2021-04-30 01:56:25
524,Kashary,49.04,41.0056,46.51,59,56,9.35,RU,2021-04-30 01:56:26
525,Ler,8.3018,30.1418,76.64,75,100,3.91,SS,2021-04-30 01:56:26
526,Chapais,49.7834,-74.8492,50.0,50,1,8.05,CA,2021-04-30 01:56:26
527,Thika,-1.0333,37.0693,62.6,94,75,2.64,KE,2021-04-30 01:56:26
528,Chifeng,42.2683,118.9636,51.21,12,100,7.27,CN,2021-04-30 01:56:27
529,Saint-Louis,16.3333,-15.0,76.82,37,5,17.0,SN,2021-04-30 01:56:27
530,Cururupu,-1.8283,-44.8683,74.43,93,99,2.42,BR,2021-04-30 01:56:27
531,Kyra,49.5776,111.9753,38.75,42,91,11.5,RU,2021-04-30 01:56:28
532,Raudeberg,61.9875,5.1352,39.0,78,14,16.49,NO,2021-04-30 01:56:28
533,Bouloupari,-21.8667,166.05,80.6,54,0,8.05,NC,2021-04-30 01:56:28
534,Havoysund,70.9963,24.6622,26.6,74,75,18.41,NO,2021-04-30 01:56:29
535,Safranbolu,41.2508,32.6942,55.8,77,100,0.36,TR,2021-04-30 01:51:52
536,Poso,-1.3959,120.7524,85.51,65,55,3.58,ID,2021-04-30 01:56:29
537,Port Hedland,-20.3167,118.5667,93.2,20,0,5.75,AU,2021-04-30 01:56:29
538,Yerbogachen,61.2767,108.0108,37.92,66,70,6.15,RU,2021-04-30 01:54:08
539,Arroyo,41.6096,-4.7969,45.0,100,20,4.61,ES,2021-04-30 01:56:30
540,Kokopo,-4.352,152.2633,84.34,66,14,4.59,PG,2021-04-30 01:56:30
541,Kyzyl-Suu,42.3414,78.0056,58.96,31,0,2.77,KG,2021-04-30 01:56:30
542,Dicabisagan,17.0818,122.4157,84.34,58,12,3.47,PH,2021-04-30 01:56:30
543,Shu,43.5983,73.7614,66.94,49,5,10.69,KZ,2021-04-30 01:56:31
544,Nanortalik,60.1432,-45.2371,36.91,84,7,9.98,GL,2021-04-30 01:54:27
545,Ati,13.2154,18.3353,81.27,9,20,6.6,TD,2021-04-30 01:56:31
546,Kankan,10.3854,-9.3057,78.96,65,100,6.73,GN,2021-04-30 01:56:31
547,Gat,31.61,34.7642,64.4,77,0,3.44,IL,2021-04-30 01:56:32
548,Avera,33.194,-82.5271,73.99,69,100,9.46,US,2021-04-30 01:55:51
549,Traipu,-9.9706,-37.0033,71.49,89,68,2.91,BR,2021-04-30 01:56:32
550,Caohai,26.8661,104.2841,62.4,51,94,6.26,CN,2021-04-30 01:56:32
551,Porto Torres,40.835,8.3972,50.0,100,0,1.14,IT,2021-04-30 01:56:32
552,Hervey Bay,-25.2986,152.8535,71.01,79,99,4.0,AU,2021-04-30 01:56:33
553,Tsabong,-26.0217,22.401,60.44,80,6,5.59,BW,2021-04-30 01:56:13
554,Oksfjord,70.2396,22.3479,26.6,74,75,18.41,NO,2021-04-30 01:56:33
555,Padrauna,26.9025,83.9819,88.63,25,0,13.29,IN,2021-04-30 01:56:33
556,Koygorodok,60.445,50.9968,29.86,83,16,4.16,RU,2021-04-30 01:56:34
557,Alofi,-19.0595,-169.9187,84.2,79,75,4.61,NU,2021-04-30 01:56:34
558,Anadyr,64.75,177.4833,24.8,80,0,11.18,RU,2021-04-30 01:56:34
559,Shakawe,-18.3667,21.85,65.14,62,14,3.74,BW,2021-04-30 01:56:34
560,Teguldet,57.3064,88.1667,43.52,84,81,11.3,RU,2021-04-30 01:56:35
561,Puerto Escondido,15.85,-97.0667,80.6,78,75,3.44,MX,2021-04-30 01:52:03
562,Taltal,-25.4,-70.4833,63.9,76,0,3.18,CL,2021-04-30 01:56:35
563,Diplo,24.4667,69.584,80.15,73,48,6.64,PK,2021-04-30 01:56:35
564,Hohhot,40.8106,111.6522,46.4,61,75,11.18,CN,2021-04-30 01:56:36
565,Alpena,45.0617,-83.4327,55.4,62,90,4.61,US,2021-04-30 01:52:23
566,Mountain Home,43.133,-115.6912,82.4,15,1,5.75,US,2021-04-30 01:54:29
567,San Vicente,-26.6167,-54.1333,52.63,55,0,3.24,AR,2021-04-30 01:56:36
568,Rincon,32.296,-81.2354,77.0,61,75,4.61,US,2021-04-30 01:56:36
569,Antalaha,-14.9003,50.2788,74.32,87,20,6.67,MG,2021-04-30 01:56:36
570,Saint-Francois,46.4154,3.9054,48.2,93,90,3.44,FR,2021-04-30 01:56:37
571,Kailua,21.4022,-157.7394,84.2,65,40,12.66,US,2021-04-30 01:56:37
572,Tiarei,-17.5333,-149.3333,89.6,58,40,4.61,PF,2021-04-30 01:56:37
573,Mosquera,4.7059,-74.2302,53.6,100,75,2.3,CO,2021-04-30 01:55:39
574,Kaspiysk,42.8816,47.6392,51.8,93,20,4.23,RU,2021-04-30 01:56:38
575,Outlook,51.5001,-107.0513,53.6,32,94,8.05,CA,2021-04-30 01:56:38
576,Camacupa,-12.0167,17.4833,62.26,93,100,3.27,AO,2021-04-30 01:56:38
577,Dwarka,22.2394,68.9678,81.43,72,100,5.59,IN,2021-04-30 01:56:38
578,Leh,34.1667,77.5833,37.69,54,14,0.43,IN,2021-04-30 01:56:39
579,Roma,43.2128,-75.4557,53.6,94,90,6.91,US,2021-04-30 01:56:39
580,Nsanje,-16.92,35.262,70.47,97,11,1.97,MW,2021-04-30 01:56:39
581,Sobinka,55.9855,40.0111,38.71,96,100,6.24,RU,2021-04-30 01:56:39
582,Gizo,-8.103,156.8419,83.01,72,33,4.68,SB,2021-04-30 01:56:40
583,Faanui,-16.4833,-151.75,81.63,70,100,4.14,PF,2021-04-30 01:56:40
584,Buraydah,26.326,43.975,69.8,32,0,4.61,SA,2021-04-30 01:56:40
585,Nchelenge,-9.3451,28.734,67.37,89,89,5.66,ZM,2021-04-30 01:56:41
586,Armidale,-30.5167,151.65,59.0,73,3,5.01,AU,2021-04-30 01:56:41
587,Zeya,53.75,127.2667,43.39,55,100,5.73,RU,2021-04-30 01:56:41
588,Gao,16.6362,1.637,86.76,11,3,6.67,ML,2021-04-30 01:56:34
589,Nelson Bay,-32.7167,152.15,71.01,77,40,9.22,AU,2021-04-30 01:56:41
590,Skibbereen,51.55,-9.2667,37.4,93,20,4.61,IE,2021-04-30 01:56:42
591,Mingaora,34.7758,72.3625,69.84,52,83,5.03,PK,2021-04-30 01:56:42
592,Mitsamiouli,-11.3847,43.2844,80.55,76,85,3.42,KM,2021-04-30 01:56:42
593,Halifax,44.6453,-63.5724,50.0,87,100,4.61,CA,2021-04-30 01:52:19
594,El Seibo,18.7641,-69.0375,73.4,88,40,7.29,DO,2021-04-30 01:56:43
595,Jumla,29.2747,82.1838,58.12,49,68,0.81,NP,2021-04-30 01:56:43
596,Dunedin,-45.8742,170.5036,55.99,72,90,10.0,NZ,2021-04-30 01:53:58
597,Iskateley,67.6803,53.1512,25.39,86,86,5.73,RU,2021-04-30 01:55:30
598,San Jose,37.3394,-121.895,72.0,48,75,12.66,US,2021-04-30 01:55:07
599,Faya,18.3851,42.4509,60.8,82,40,6.26,SA,2021-04-30 01:56:43
600,Kutum,14.2,24.6667,74.07,17,29,5.46,SD,2021-04-30 01:56:43
601,Kursenai,55.985,22.9189,42.8,93,90,12.66,LT,2021-04-30 01:56:44
602,Koutiala,12.3917,-5.4642,90.36,33,96,12.5,ML,2021-04-30 01:56:44
603,Svobodnyy,51.4,128.1333,55.81,33,44,10.56,RU,2021-04-30 01:56:44
604,Sunrise Manor,36.2111,-115.0731,89.6,8,1,4.61,US,2021-04-30 01:56:44
605,Japura,-0.3167,102.35,76.28,94,100,3.36,ID,2021-04-30 01:56:45
606,Weihai,37.5017,122.1136,50.85,62,10,9.64,CN,2021-04-30 01:56:45
607,Menongue,-14.6585,17.691,63.77,78,100,2.84,AO,2021-04-30 01:56:45
608,Tommot,58.9564,126.2925,36.99,95,100,3.44,RU,2021-04-30 01:56:46
609,Lamar,33.6668,-95.5836,66.2,88,75,12.66,US,2021-04-30 01:56:46
610,Poyarkovo,49.6,128.6833,56.37,33,100,15.37,RU,2021-04-30 01:56:46
611,Baykit,61.67,96.37,39.45,74,95,10.54,RU,2021-04-30 01:56:46
612,Broken Hill,-31.95,141.4333,73.4,28,0,10.36,AU,2021-04-30 01:56:47
613,Pochutla,15.7432,-96.4661,80.01,83,89,4.0,MX,2021-04-30 01:56:11
614,Bubaque,11.2833,-15.8333,78.15,67,49,14.34,GW,2021-04-30 01:54:58
615,Nhulunbuy,-12.2333,136.7667,86.0,62,40,12.66,AU,2021-04-30 01:55:15
616,Dhangadhi,28.7079,80.5961,88.25,21,28,3.44,NP,2021-04-30 01:56:47
617,Cayenne,4.9333,-52.3333,77.0,94,0,4.29,GF,2021-04-30 01:56:47
618,Garowe,8.4054,48.4845,76.82,79,100,8.25,SO,2021-04-30 01:56:48
619,Gadsden,34.0143,-86.0066,73.0,94,75,5.75,US,2021-04-30 01:56:48
620,San Quintin,30.4833,-115.95,64.94,72,0,8.28,MX,2021-04-30 01:56:23
621,Gushikawa,26.3544,127.8686,71.6,88,1,5.75,JP,2021-04-30 01:56:48
622,Thinadhoo,0.5333,72.9333,83.19,71,21,4.43,MV,2021-04-30 01:56:49
623,Grand Forks,47.9417,-97.4337,50.0,29,75,12.66,US,2021-04-30 01:56:49
624,Sabang,5.8933,95.3214,82.69,69,100,1.07,ID,2021-04-30 01:56:49
625,Barahan,13.0121,120.762,84.69,66,95,8.75,PH,2021-04-30 01:56:49
626,Wajima,37.4,136.9,57.2,88,75,5.75,JP,2021-04-30 01:56:50
627,Sciacca,37.5082,13.0881,63.0,61,48,5.01,IT,2021-04-30 01:56:50
628,Sao Jose Da Laje,-9.0097,-36.0583,75.2,94,40,3.44,BR,2021-04-30 01:56:50
629,Kathmandu,27.7167,85.3167,59.0,94,75,2.3,NP,2021-04-30 01:56:51
630,Ust-Omchug,61.15,149.6333,30.52,92,75,2.68,RU,2021-04-30 01:56:51
631,Bushehr,28.9684,50.8385,73.4,73,0,4.61,IR,2021-04-30 01:56:51
632,Magomeni,-6.8,39.25,73.22,95,100,4.72,TZ,2021-04-30 01:56:51
633,Hibbing,47.4272,-92.9377,51.8,43,90,8.05,US,2021-04-30 01:56:52
634,Porbandar,21.6422,69.6093,80.51,75,82,7.56,IN,2021-04-30 01:54:11
635,Uberlandia,-18.9186,-48.2772,66.2,48,0,10.36,BR,2021-04-30 01:54:32
636,Kragujevac,44.0167,20.9167,52.0,100,40,1.14,RS,2021-04-30 01:56:52
637,Vygonichi,53.0985,34.0673,44.6,61,100,4.47,RU,2021-04-30 01:56:52
638,Bria,6.5423,21.9863,69.73,90,100,2.28,CF,2021-04-30 01:56:53
639,Jiuquan,39.7432,98.5174,71.92,12,6,4.74,CN,2021-04-30 01:56:53
640,Marzuq,14.4,46.4667,71.87,64,99,3.04,YE,2021-04-30 01:56:53
641,Tautira,-17.7333,-149.15,89.6,58,40,4.61,PF,2021-04-30 01:56:54
642,Micheweni,-4.9667,39.8333,77.47,87,100,8.28,TZ,2021-04-30 01:56:54
643,Puerto Castilla,16.0167,-85.9667,82.4,83,0,17.27,HN,2021-04-30 01:56:54
644,Acacias,3.987,-73.758,70.11,95,99,3.51,CO,2021-04-30 01:56:54
645,Mandera,3.9366,41.867,80.73,67,100,11.54,KE,2021-04-30 01:56:55
646,Cananeia,-25.0147,-47.9267,67.05,83,58,4.32,BR,2021-04-30 01:56:55
647,Albanel,48.8832,-72.4487,46.4,66,60,6.91,CA,2021-04-30 01:56:55
648,Aksarayskiy,46.7924,48.0119,55.4,50,0,11.18,RU,2021-04-30 01:56:56
649,Ciudad Bolivar,8.1222,-63.5497,75.99,72,98,8.28,VE,2021-04-30 01:56:56
650,Bjornevatn,69.6672,29.9847,28.4,74,100,20.71,NO,2021-04-30 01:56:56
651,Chocaman,19.0167,-97.0167,69.35,80,100,5.44,MX,2021-04-30 01:56:56
652,Erenhot,43.6475,111.9767,47.14,13,36,10.45,CN,2021-04-30 01:56:57
653,Penzance,50.1186,-5.5371,39.2,87,1,7.47,GB,2021-04-30 01:56:08
654,Champerico,14.3,-91.9167,66.99,92,81,6.02,GT,2021-04-30 01:56:57
655,Marfino,55.7028,37.3822,44.6,61,0,6.71,RU,2021-04-30 01:56:57
656,Jiwani,25.05,61.7417,83.57,68,70,7.65,PK,2021-04-30 01:56:57
657,Lady Lake,28.9175,-81.9229,75.99,68,92,6.58,US,2021-04-30 01:54:15
658,Leshukonskoye,64.8989,45.7622,29.7,80,100,4.16,RU,2021-04-30 01:56:58
659,Taksimo,56.3444,114.8794,35.17,64,89,2.77,RU,2021-04-30 01:56:58
660,Anchorage,61.2181,-149.9003,44.6,76,90,6.91,US,2021-04-30 01:54:17
661,Jinchang,38.4953,102.1739,65.21,21,3,9.01,CN,2021-04-30 01:56:58
662,Cataingan,12.003,123.992,82.13,75,49,8.1,PH,2021-04-30 01:56:59
663,Galveston,29.3669,-94.9669,77.0,83,90,10.36,US,2021-04-30 01:56:59
664,Zhumadian,32.9794,114.0294,77.38,49,0,14.41,CN,2021-04-30 01:56:59
665,Tutoia,-2.7619,-42.2744,76.59,88,100,9.15,BR,2021-04-30 01:56:59
666,Severo-Yeniseyskiy,60.3725,93.0408,34.3,88,100,12.62,RU,2021-04-30 01:53:14
667,Balatonalmadi,47.0353,18.0208,57.0,75,100,13.0,HU,2021-04-30 01:57:00
668,Zelenogorskiy,55.0333,87.0,44.6,57,0,20.13,RU,2021-04-30 01:57:00
669,Manosque,43.8288,5.7869,50.0,96,100,2.62,FR,2021-04-30 01:57:00
670,Ceuta,35.8903,-5.3075,59.0,77,40,5.75,ES,2021-04-30 01:57:00
671,Manyana,-23.4,21.7167,60.17,77,46,3.44,BW,2021-04-30 01:57:01
672,Sinnamary,5.3833,-52.95,76.66,89,100,5.88,GF,2021-04-30 01:55:18
673,Port-Cartier,50.0334,-66.8654,44.01,70,75,2.3,CA,2021-04-30 01:57:01
674,Atbasar,51.8,68.3333,45.3,56,24,6.13,KZ,2021-04-30 01:57:01
675,Oros,-6.2444,-38.9136,73.36,85,99,3.67,BR,2021-04-30 01:57:02
676,Aguimes,27.9054,-15.4461,66.2,82,40,3.44,ES,2021-04-30 01:57:02
677,Debre Tabor,11.85,38.0167,55.9,72,100,4.0,ET,2021-04-30 01:57:02
678,Fenoarivo,-18.933,47.4354,62.6,94,75,6.91,MG,2021-04-30 01:57:02
679,Kudahuvadhoo,2.6708,72.8944,83.08,71,33,3.06,MV,2021-04-30 01:56:29
680,Varkkallai,8.7341,76.7067,84.2,89,20,3.44,IN,2021-04-30 01:57:03
681,Nago,26.5881,127.9761,71.6,88,1,5.75,JP,2021-04-30 01:57:03
682,Bara,10.3744,10.7288,83.05,48,48,1.79,NG,2021-04-30 01:55:58
683,Ferkessedougou,9.6,-5.2,80.94,62,100,5.19,CI,2021-04-30 01:57:03
684,Aracuai,-16.8497,-42.0703,69.13,90,84,4.36,BR,2021-04-30 01:57:04
685,Bandar,2.05,99.75,74.26,97,100,2.68,ID,2021-04-30 01:57:04
686,Mount Gambier,-37.8333,140.7667,68.0,60,0,8.05,AU,2021-04-30 01:57:04
687,Gigmoto,13.7796,124.39,82.8,65,97,1.83,PH,2021-04-30 01:57:05
688,Nadym,65.5333,72.5167,31.96,85,100,10.96,RU,2021-04-30 01:57:05
689,Hokitika,-42.7167,170.9667,57.18,76,100,3.53,NZ,2021-04-30 01:57:05
690,Hualmay,-11.0964,-77.6139,66.94,85,0,8.66,PE,2021-04-30 01:57:05
691,Killybegs,54.6333,-8.45,39.65,76,4,3.58,IE,2021-04-30 01:57:06
692,Sucua,-2.4667,-78.1667,67.73,98,96,1.66,EC,2021-04-30 01:57:06
693,Abu Kamal,34.4506,40.9171,75.83,34,0,11.54,SY,2021-04-30 01:57:06
694,Wageningen,51.9667,5.6667,46.0,93,90,4.61,NL,2021-04-30 01:57:06
695,Mehamn,71.0357,27.8492,27.99,63,100,21.27,NO,2021-04-30 01:57:07
696,Kahului,20.8947,-156.47,80.6,69,40,17.27,US,2021-04-30 01:57:07
697,Lagunas,-5.2269,-75.6753,71.67,97,30,2.89,PE,2021-04-30 01:57:07
698,Anjad,22.0333,75.05,89.04,31,60,9.64,IN,2021-04-30 01:57:07
699,Tyukalinsk,55.8732,72.1967,44.33,61,6,11.52,RU,2021-04-30 01:57:08
